{
    "type": "FeatureCollection",
    "features": [{
            "type": "Feature",
            "properties": {
                "Id": 0,
                "name": "Terminal Charitas",
                "type": "bottom-right"
            },
            "geometry": {
                "type": "Point",
                "coordinates": [-43.099156924940246, -22.932983912438413]
            }
        },
        {
            "type": "Feature",
            "properties": {
                "Id": 1,
                "name": "Estação BHS - Fazendinha, perto da AABB",
                "type": "right"
            },
            "geometry": {
                "type": "Point",
                "coordinates": [-43.076832354034934, -22.933840323402247]
            }
        },
        {
            "type": "Feature",
            "properties": {
                "Id": 2,
                "name": "Estação BHS -  Rótula Cafubá da Fazendinha",
                "type": "top"
            },
            "geometry": {
                "type": "Point",
                "coordinates":  [-43.071492471048394, -22.9361155625583]
            }
        },
        {
            "type": "Feature",
            "properties": {
                "Id": 3,
                "name": "Estação BHS - Próximo ao DPO do Cafubá",
                "type": "top-right"
            },
            "geometry": {
                "type": "Point",
                "coordinates": [-43.066387176309966, -22.932902255212436]
            }
        },
        {
            "type": "Feature",
            "properties": {
                "Id": 4,
                "name": "Estação BHS - Antigo hospital Amil",
                "type": "top"
            },
            "geometry": {
                "type": "Point",
                "coordinates": [-43.062171439464329, -22.936957136690182]
            }
        },
        {
            "type": "Feature",
            "properties": {
                "Id": 5,
                "name": "Estação BHS - Antes do Multicenter, ao lado do hospital",
                "type": "top-right"
            },
            "geometry": {
                "type": "Point",
                "coordinates": [-43.058293162267049, -22.940581324643247]
            }
        },
        {
            "type": "Feature",
            "properties": {
                "Id": 6,
                "name": "Estação Próximo Avenida Santo Antônio",
                "type": "top-right"
            },
            "geometry": {
                "type": "Point",
                "coordinates": [-43.053185470555363, -22.941144829248969]
            }
        },
        {
            "type": "Feature",
            "properties": {
                "Id": 7,
                "name": "Estação BHS - Antes da subestação da Enel e depois da Rua das Andorinhas",
                "type": "top"
            },
            "geometry": {
                "type": "Point",
                "coordinates": [-43.045572534695609, -22.940222247394448]
            }
        },
        {
            "type": "Feature",
            "properties": {
                "Id": 8,
                "name": "Estação BHS - Próximo Rua São Marcio",
                "type": "top"
            },
            "geometry": {
                "type": "Point",
                "coordinates": [-43.041020898842298, -22.941325559677306]
            }
        },
        {
            "type": "Feature",
            "properties": {
                "Id": 9,
                "name": "Estação BHS - em frente ao Mercado Maravista",
                "type": "top"
            },
            "geometry": {
                "type": "Point",
                "coordinates": [-43.035431348756845, -22.944359498404577]
            }
        },
        {
            "type": "Feature",
            "properties": {
                "Id": 10,
                "name": "Estação BHS - Rótula da Avenida Central",
                "type": "top-right"
            },
            "geometry": {
                "type": "Point",
                "coordinates": [-43.032118621430293, -22.946672798407455]
            }
        },
        {
            "type": "Feature",
            "properties": {
                "Id": 11,
                "name": "Estação BHS - Perto do Rio João Mendes",
                "type": "top-right"
            },
            "geometry": {
                "type": "Point",
                "coordinates": [-43.029690751944905, -22.949500499701237]
            }
        },
        {
            "type": "Feature",
            "properties": {
                "Id": 12,
                "name": "Terminal Itaipu - Estação Engenho do Mato",
                "type": "top-right"
            },
            "geometry": {
                "type": "Point",
                "coordinates": [-43.027836101826097, -22.953465956285058]
            }
        }
    ]
}
