{
    "type": "FeatureCollection",
    "features": [{
            "type": "Feature",
            "properties": {
                "Id": 0,
                "name": "Terminal Charitas",
                "type": "bottom-right"
            },
            "geometry": {
                "type": "Point",
                "coordinates": [-43.099156924941582, -22.932983912438925]
            }
        },
        {
            "type": "Feature",
            "properties": {
                "Id": 1,
                "name": "Estação Fazendinha, perto da AABB",
                "type": "right"
            },
            "geometry": {
                "type": "Point",
                "coordinates": [-43.027836101827724, -22.953465956285683]
            }
        },
        {
            "type": "Feature",
            "properties": {
                "Id": 2,
                "name": "Estação Rótula Cafubá da Fazendinha",
                "type": "top"
            },
            "geometry": {
                "type": "Point",
                "coordinates": [-43.071492471049837, -22.936115562558854]
            }
        },
        {
            "type": "Feature",
            "properties": {
                "Id": 3,
                "name": "Estação Próximo ao DPO do Cafubá",
                "type": "top-right"
            },
            "geometry": {
                "type": "Point",
                "coordinates": [-43.062171439465821, -22.93695713669074]
            }
        },
        {
            "type": "Feature",
            "properties": {
                "Id": 4,
                "name": "Estação Antigo hospital Amil",
                "type": "top"
            },
            "geometry": {
                "type": "Point",
                "coordinates": [-43.076832354036362, -22.93384032340278]
            }
        },
        {
            "type": "Feature",
            "properties": {
                "Id": 5,
                "name": "Estação Antes do Multicenter, ao lado do hospital",
                "type": "top-right"
            },
            "geometry": {
                "type": "Point",
                "coordinates": [-43.066387176311437, -22.932902255212987]
            }
        },
        {
            "type": "Feature",
            "properties": {
                "Id": 6,
                "name": "Estação Próximo Avenida Santo Antônio",
                "type": "top-right"
            },
            "geometry": {
                "type": "Point",
                "coordinates": [-43.058293162268555, -22.940581324643816]
            }
        },
        {
            "type": "Feature",
            "properties": {
                "Id": 7,
                "name": "Estação Antes da subestação da Enel e depois da Rua das Andorinhas",
                "type": "top"
            },
            "geometry": {
                "type": "Point",
                "coordinates": [-43.053185470556883, -22.941144829249538]
            }
        },
        {
            "type": "Feature",
            "properties": {
                "Id": 8,
                "name": "Estação Próximo Rua São Marcio",
                "type": "top"
            },
            "geometry": {
                "type": "Point",
                "coordinates": [-43.045572534697158, -22.940222247395038]
            }
        },
        {
            "type": "Feature",
            "properties": {
                "Id": 9,
                "name": "Estação em frente ao Mercado Maravista",
                "type": "top"
            },
            "geometry": {
                "type": "Point",
                "coordinates": [-43.041020898843868, -22.94132555967791]
            }
        },
        {
            "type": "Feature",
            "properties": {
                "Id": 10,
                "name": "Estação Rótula da Avenida Central",
                "type": "top-right"
            },
            "geometry": {
                "type": "Point",
                "coordinates": [-43.035431348758436, -22.944359498405188]
            }
        },
        {
            "type": "Feature",
            "properties": {
                "Id": 11,
                "name": "Estação Perto do Rio João Mendes",
                "type": "top-right"
            },
            "geometry": {
                "type": "Point",
                "coordinates": [-43.032118621431898, -22.946672798408073]
            }
        },
        {
            "type": "Feature",
            "properties": {
                "Id": 12,
                "name": "Estação Engenho do Mato",
                "type": "top-right"
            },
            "geometry": {
                "type": "Point",
                "coordinates": [-43.029690751946525, -22.949500499701855]
            }
        }
    ]
}
